[
  {
    "area": "東京",
    "clinics": [
      {
        "name": "池袋院（提携院）",
        "hours": "9:00-20:00",
        "closed": "年末年始",
        "stations": "JR「池袋駅」 東口より徒歩5分"
      },
      {
        "name": "渋谷院（提携院）",
        "hours": "9:00-20:00",
        "closed": "年末年始",
        "stations": "JR「渋谷駅」 東口より徒歩6分"
      },
      {
        "name": "錦糸町院",
        "hours": "9:00-20:00",
        "closed": "不定休・年末年始",
        "stations": "JR東日本「錦糸町駅」2番出口徒歩3分\nJR東日本「錦糸町駅」南口徒歩5分"
      },
      {
        "name": "吉祥寺院",
        "hours": "9:00-19:00",
        "closed": "不定休・年末年始",
        "stations": "JR「吉祥寺駅」より徒歩2分"
      },
      {
        "name": "表参道（提携院）",
        "hours": "9:00-19:00",
        "closed": "不定休・年末年始",
        "stations": "東京メトロ銀座線「表参道駅」より徒歩約1分\n東京メトロ千代田線「表参道駅」より徒歩約1分\n東京メトロ半蔵門線「表参道駅」より徒歩約1分"
      }
    ]
  },
  {
    "area": "関東",
    "clinics": [
      {
        "name": "大宮院（提携院）",
        "hours": "9:00-19:00",
        "closed": "年末年始",
        "stations": "JR「大宮駅」東口より徒歩5分"
      },
      {
        "name": "川崎院",
        "hours": "9:00-19:00",
        "closed": "年末年始",
        "stations": "JR「川崎」駅より徒歩1分\n京急「川崎」駅より徒歩3分"
      },
      {
        "name": "横浜院（提携院）",
        "hours": "9:00-20:00",
        "closed": "年末年始",
        "stations": "横浜市営地下鉄ブルーライン「横浜駅」出口9より徒歩1分\nJR東海道本線/東横線/みなとみらい線「横浜駅」より徒歩3分"
      },
      {
        "name": "高崎院",
        "hours": "9:00-19:00",
        "closed": "年末年始",
        "stations": "高崎駅 徒歩5分"
      },
      {
        "name": "千葉院（提携院）",
        "hours": "9:00-19:00",
        "closed": "年末年始",
        "stations": "JR千葉駅 中央改札より徒歩6分\nJR千葉中央駅 徒歩5分"
      },
      {
        "name": "柏院（提携院）",
        "hours": "9:00-19:00",
        "closed": "年末年始",
        "stations": "JR常磐線「柏駅」より徒歩2分"
      },
      {
        "name": "松戸院（提携院）",
        "hours": "9:00-19:00",
        "closed": "年末年始",
        "stations": "JR常磐線/新京成線 松戸駅西口より徒歩約3分"
      },
      {
        "name": "宇都宮院（提携院）",
        "hours": "9:00-19:00",
        "closed": "年末年始",
        "stations": "東武「宇都宮駅」より徒歩2分\nJR「宇都宮駅」より徒歩20分\nバス「東武駅前」停留所より徒歩1分"
      }
    ]
  },
  {
    "area": "北海道",
    "clinics": [
      {
        "name": "札幌院（提携院）",
        "hours": "9:00-20:00",
        "closed": "年末年始",
        "stations": "札幌市営地下鉄 大通駅 徒歩1分\n東豊線 豊水すすきの駅 徒歩6分"
      }
    ]
  },
  {
    "area": "東北",
    "clinics": [
      {
        "name": "青森院（提携院）",
        "hours": "9:00-19:00",
        "closed": "不定休・年末年始",
        "stations": "JR奥羽本線 青森駅 東口 徒歩5分\nJR津軽線 青森駅 東口 徒歩5分"
      },
      {
        "name": "仙台院（提携院）",
        "hours": "9:00-19:00",
        "closed": "年末年始",
        "stations": "JR東北本線「仙台駅」西口より徒歩3分\n仙台市地下鉄南北線 「仙台（地下鉄）駅」より徒歩3分"
      },
      {
        "name": "福島院",
        "hours": "9:00-19:00",
        "closed": "年末年始",
        "stations": "JR東北本線「郡山」駅より徒歩7分"
      }
    ]
  },
  {
    "area": "中部",
    "clinics": [
      {
        "name": "静岡院（提携院）",
        "hours": "9:00-19:00",
        "closed": "年末年始",
        "stations": "JR東海道本線 静岡駅 北口 徒歩約12分"
      },
      {
        "name": "名古屋院（提携院）",
        "hours": "9:00-20:00",
        "closed": "年末年始",
        "stations": "「名古屋駅」より徒歩4分\n桜通線「国際センター駅」徒歩4分"
      },
      {
        "name": "金沢院",
        "hours": "9:00-19:00",
        "closed": "年末年始",
        "stations": "「金沢駅」徒歩5分\n「北鉄金沢駅」徒歩5分"
      },
      {
        "name": "新潟院（提携院）",
        "hours": "9:00-19:00",
        "closed": "年末年始",
        "stations": "新潟駅 徒歩5分"
      }
    ]
  },
  {
    "area": "関西",
    "clinics": [
      {
        "name": "心斎橋院（提携院）",
        "hours": "9:00-20:00",
        "closed": "年末年始",
        "stations": "御堂筋線・長堀鶴見緑地線「心斎橋駅」より徒歩2分"
      },
      {
        "name": "梅田院（提携院）",
        "hours": "9:00-20:00",
        "closed": "年末年始",
        "stations": "東梅田駅 4番出口 徒歩1分\n大阪梅田駅 1階正面東側出口 徒歩5分"
      },
      {
        "name": "京都院（提携院）",
        "hours": "9:00-19:00",
        "closed": "年末年始",
        "stations": "阪急京都本線「烏丸駅」より徒歩2分\n京都市営烏丸線「四条駅」より徒歩3分"
      },
      {
        "name": "三宮院（提携院）",
        "hours": "9:00-19:00",
        "closed": "年末年始",
        "stations": "神戸三宮駅 徒歩5分\nJR三ノ宮駅 徒歩5分"
      }
    ]
  },
  {
    "area": "中国・四国",
    "clinics": [
      {
        "name": "広島院",
        "hours": "9:00-19:00",
        "closed": "年末年始",
        "stations": "立町駅 徒歩2分\n紙屋町東駅 徒歩3分\n八丁堀駅 徒歩4分\n広島駅 徒歩22分"
      },
      {
        "name": "岡山院（提携院）",
        "hours": "9:00-19:00",
        "closed": "不定休・年末年始",
        "stations": "岡山駅東口 徒歩5分"
      },
      {
        "name": "高松院（提携院）",
        "hours": "9:00-19:00",
        "closed": "年末年始",
        "stations": "高松駅 徒歩7分\n高松築港駅 徒歩8分\n片原町駅 徒歩8分"
      },
      {
        "name": "松山院（提携院）",
        "hours": "9:00-19:00",
        "closed": "年末年始",
        "stations": "松山市駅 徒歩7分"
      }
    ]
  },
  {
    "area": "九州・沖縄",
    "clinics": [
      {
        "name": "天神南院（提携院）",
        "hours": "9:00-20:00",
        "closed": "年末年始",
        "stations": "天神南駅4出口すぐ\n西鉄福岡駅南出口 徒歩2分"
      },
      {
        "name": "熊本院（提携院）",
        "hours": "9:00-19:00",
        "closed": "年末年始",
        "stations": "水道町駅 徒歩6分"
      },
      {
        "name": "鹿児島院（提携院）",
        "hours": "9:00-19:00",
        "closed": "年末年始",
        "stations": "朝日通駅 徒歩2分\n市役所前駅 徒歩5分\nいづろ通駅 徒歩5分"
      },
      {
        "name": "那覇院（提携院）",
        "hours": "9:00-19:00",
        "closed": "年末年始",
        "stations": "モノレール「おもろまち駅」より徒歩10分\nモノレール「古島駅」より徒歩10分\n那覇バス「銘苅一丁目」より徒歩3分"
      }
    ]
  }
]
